{
  "type": "FeatureCollection",
  "generator": "overpass-ide",
  "copyright": "The data included in this document is from www.openstreetmap.org. The data is made available under ODbL.",
  "timestamp": "2023-04-02T19:32:08Z",
  "features": [
    {
      "type": "Feature",
      "properties": {
        "@id": "way/3429385",
        "amenity": "school",
        "name": "Pestalozzi-Grundschule",
        "@geometry": "center"
      },
      "geometry": {
        "type": "Point",
        "coordinates": [
          8.6686918,
          49.5497833
        ]
      },
      "id": "way/3429385"
    },
    {
      "type": "Feature",
      "properties": {
        "@id": "way/3445372",
        "leisure": "park",
        "name": "Schlosspark",
        "@geometry": "center"
      },
      "geometry": {
        "type": "Point",
        "coordinates": [
          8.670479,
          49.5442979
        ]
      },
      "id": "way/3445372"
    },
    {
      "type": "Feature",
      "properties": {
        "@id": "way/3445428",
        "leisure": "park",
        "name": "Schlosspark",
        "@geometry": "center"
      },
      "geometry": {
        "type": "Point",
        "coordinates": [
          8.6698991,
          49.5460336
        ]
      },
      "id": "way/3445428"
    },
    {
      "type": "Feature",
      "properties": {
        "@id": "node/10993507",
        "bench": "yes",
        "bin": "yes",
        "bus": "yes",
        "highway": "bus_stop",
        "lit": "yes",
        "name": "Weinheim Bahnhofstraße",
        "network": "Verkehrsverbund Rhein-Neckar",
        "network:guid": "DE-BW-VRN",
        "network:short": "VRN",
        "network:wikidata": "Q1553051",
        "network:wikipedia": "de:Verkehrsverbund Rhein-Neckar",
        "public_transport": "platform",
        "shelter": "yes",
        "source:position": "Bing 2012",
        "tactile_paving": "no"
      },
      "geometry": {
        "type": "Point",
        "coordinates": [
          8.666961,
          49.5520829
        ]
      },
      "id": "node/10993507"
    },
    {
      "type": "Feature",
      "properties": {
        "@id": "node/10993878",
        "bench": "yes",
        "bus": "yes",
        "highway": "bus_stop",
        "name": "Weinheim Hexenturm",
        "network": "Verkehrsverbund Rhein-Neckar",
        "network:guid": "DE-BW-VRN",
        "network:short": "VRN",
        "network:wikidata": "Q1553051",
        "network:wikipedia": "de:Verkehrsverbund Rhein-Neckar",
        "public_transport": "platform",
        "shelter": "no",
        "tactile_paving": "no"
      },
      "geometry": {
        "type": "Point",
        "coordinates": [
          8.6734925,
          49.5447011
        ]
      },
      "id": "node/10993878"
    },
    {
      "type": "Feature",
      "properties": {
        "@id": "node/10993898",
        "bench": "yes",
        "bin": "yes",
        "bus": "yes",
        "highway": "bus_stop",
        "lit": "yes",
        "name": "Weinheim Schlossbergterrasse",
        "network": "Verkehrsverbund Rhein-Neckar",
        "network:guid": "DE-BW-VRN",
        "network:short": "VRN",
        "network:wikidata": "Q1553051",
        "network:wikipedia": "de:Verkehrsverbund Rhein-Neckar",
        "public_transport": "platform",
        "shelter": "yes",
        "tactile_paving": "yes",
        "uic_ref": "510432"
      },
      "geometry": {
        "type": "Point",
        "coordinates": [
          8.6730855,
          49.5487237
        ]
      },
      "id": "node/10993898"
    },
    {
      "type": "Feature",
      "properties": {
        "@id": "node/10993925",
        "bus": "yes",
        "highway": "bus_stop",
        "name": "Weinheim Peterskirche",
        "network": "Verkehrsverbund Rhein-Neckar",
        "network:guid": "DE-BW-VRN",
        "network:short": "VRN",
        "network:wikidata": "Q1553051",
        "network:wikipedia": "de:Verkehrsverbund Rhein-Neckar",
        "public_transport": "platform",
        "source:position": "Bing 2012",
        "tactile_paving": "no"
      },
      "geometry": {
        "type": "Point",
        "coordinates": [
          8.6758992,
          49.5533776
        ]
      },
      "id": "node/10993925"
    },
    {
      "type": "Feature",
      "properties": {
        "@id": "relation/12501547",
        "leisure": "park",
        "name": "Stadtgarten",
        "type": "multipolygon",
        "@geometry": "center"
      },
      "geometry": {
        "type": "Point",
        "coordinates": [
          8.6698854,
          49.5486185
        ]
      },
      "id": "relation/12501547"
    },
    {
      "type": "Feature",
      "properties": {
        "@id": "node/16257496",
        "addr:housenumber": "86",
        "addr:street": "Mannheimer Straße",
        "brand": "Lidl",
        "brand:wikidata": "Q151954",
        "brand:wikipedia": "en:Lidl",
        "check_date": "2022-05-26",
        "internet_access": "wlan",
        "internet_access:fee": "no",
        "name": "Lidl",
        "opening_hours": "Mo-Sa 07:00-22:00",
        "payment:mastercard": "yes",
        "payment:visa": "yes",
        "phone": "+49 800 4353361",
        "shop": "supermarket",
        "website": "https://lidl.de/",
        "wheelchair": "yes"
      },
      "geometry": {
        "type": "Point",
        "coordinates": [
          8.6543267,
          49.5502832
        ]
      },
      "id": "node/16257496"
    },
    {
      "type": "Feature",
      "properties": {
        "@id": "node/16257507",
        "addr:housenumber": "32",
        "addr:street": "Breitwieserweg",
        "check_date": "2022-07-17",
        "description": "Türkische Backwaren",
        "disused:shop": "bakery",
        "name": "Tuma Backwaren",
        "opening_hours": "Mo-Sa 08:00-18:00",
        "phone": "+49 176 35819844",
        "shop": "bakery",
        "website": "https://facebook.com/tumabackwaren/",
        "wheelchair": "no"
      },
      "geometry": {
        "type": "Point",
        "coordinates": [
          8.6564061,
          49.5500189
        ]
      },
      "id": "node/16257507"
    },
    {
      "type": "Feature",
      "properties": {
        "@id": "node/16257556",
        "brand": "EDEKA",
        "brand:wikidata": "Q701755",
        "brand:wikipedia": "de:Edeka",
        "name": "EDEKA",
        "shoes": "supermarket",
        "shop": "supermarket",
        "toilets:wheelchair": "no",
        "wheelchair": "yes"
      },
      "geometry": {
        "type": "Point",
        "coordinates": [
          8.6688487,
          49.5581699
        ]
      },
      "id": "node/16257556"
    },
    {
      "type": "Feature",
      "properties": {
        "@id": "node/16257557",
        "created_by": "JOSM",
        "name": "Backkultur",
        "shop": "bakery"
      },
      "geometry": {
        "type": "Point",
        "coordinates": [
          8.6689536,
          49.5581944
        ]
      },
      "id": "node/16257557"
    },
    {
      "type": "Feature",
      "properties": {
        "@id": "node/16369666",
        "bench": "yes",
        "bin": "yes",
        "bus": "yes",
        "highway": "bus_stop",
        "name": "Weinheim Friedrichschule",
        "network": "Verkehrsverbund Rhein-Neckar",
        "network:guid": "DE-BW-VRN",
        "network:short": "VRN",
        "network:wikidata": "Q1553051",
        "network:wikipedia": "de:Verkehrsverbund Rhein-Neckar",
        "public_transport": "platform",
        "shelter": "yes",
        "tactile_paving": "yes"
      },
      "geometry": {
        "type": "Point",
        "coordinates": [
          8.6686098,
          49.5597996
        ]
      },
      "id": "node/16369666"
    },
    {
      "type": "Feature",
      "properties": {
        "@id": "node/16463087",
        "bench": "yes",
        "bin": "yes",
        "bus": "yes",
        "highway": "bus_stop",
        "lit": "yes",
        "name": "Weinheim Dürreplatz",
        "network": "Verkehrsverbund Rhein-Neckar",
        "network:guid": "DE-BW-VRN",
        "network:short": "VRN",
        "network:wikidata": "Q1553051",
        "network:wikipedia": "de:Verkehrsverbund Rhein-Neckar",
        "public_transport": "platform",
        "shelter": "yes",
        "tactile_paving": "yes"
      },
      "geometry": {
        "type": "Point",
        "coordinates": [
          8.6725539,
          49.5502474
        ]
      },
      "id": "node/16463087"
    },
    {
      "type": "Feature",
      "properties": {
        "@id": "node/16547281",
        "access": "yes",
        "created_by": "JOSM",
        "leisure": "playground",
        "name": "Katzenlauf"
      },
      "geometry": {
        "type": "Point",
        "coordinates": [
          8.6714737,
          49.5441059
        ]
      },
      "id": "node/16547281"
    },
    {
      "type": "Feature",
      "properties": {
        "@id": "node/16547616",
        "addr:city": "Weinheim",
        "addr:country": "DE",
        "addr:housenumber": "84",
        "addr:postcode": "69469",
        "addr:street": "Hauptstraße",
        "check_date:opening_hours": "2021-05-03",
        "name": "Grimminger",
        "opening_hours": "Mo-Fr 07:00-18:30; Sa 07:00-17:00; Su 08:00-17:00",
        "shop": "bakery",
        "wheelchair": "limited"
      },
      "geometry": {
        "type": "Point",
        "coordinates": [
          8.6717129,
          49.5494106
        ]
      },
      "id": "node/16547616"
    },
    {
      "type": "Feature",
      "properties": {
        "@id": "node/16952541",
        "bench": "yes",
        "bin": "yes",
        "bus": "yes",
        "highway": "bus_stop",
        "lit": "yes",
        "name": "Weinheim Hermannshof",
        "network": "Verkehrsverbund Rhein-Neckar",
        "network:guid": "DE-BW-VRN",
        "network:short": "VRN",
        "network:wikidata": "Q1553051",
        "network:wikipedia": "de:Verkehrsverbund Rhein-Neckar",
        "public_transport": "platform",
        "shelter": "yes",
        "tactile_paving": "yes"
      },
      "geometry": {
        "type": "Point",
        "coordinates": [
          8.6701279,
          49.5468663
        ]
      },
      "id": "node/16952541"
    },
    {
      "type": "Feature",
      "properties": {
        "@id": "node/17025150",
        "created_by": "JOSM",
        "leisure": "park",
        "name": "Heilpflanzengarten"
      },
      "geometry": {
        "type": "Point",
        "coordinates": [
          8.6719818,
          49.5445307
        ]
      },
      "id": "node/17025150"
    },
    {
      "type": "Feature",
      "properties": {
        "@id": "node/17408469",
        "bench": "no",
        "bin": "no",
        "bus": "yes",
        "highway": "bus_stop",
        "lit": "yes",
        "name": "Weinheim Weberstraße",
        "network": "VRN",
        "public_transport": "platform",
        "shelter": "no",
        "tactile_paving": "no"
      },
      "geometry": {
        "type": "Point",
        "coordinates": [
          8.6635357,
          49.5420354
        ]
      },
      "id": "node/17408469"
    },
    {
      "type": "Feature",
      "properties": {
        "@id": "node/17656033",
        "bench": "no",
        "bin": "no",
        "bus": "yes",
        "highway": "bus_stop",
        "name": "Freiburger Straße",
        "network": "VRN",
        "public_transport": "platform",
        "shelter": "no",
        "tactile_paving": "no"
      },
      "geometry": {
        "type": "Point",
        "coordinates": [
          8.6304179,
          49.5451016
        ]
      },
      "id": "node/17656033"
    },
    {
      "type": "Feature",
      "properties": {
        "@id": "node/21409572",
        "bus": "yes",
        "highway": "bus_stop",
        "name": "Wünschmichelbach Daummühle",
        "network": "VRN",
        "public_transport": "stop_position",
        "traffic_sign:backward": "DE:274[70]"
      },
      "geometry": {
        "type": "Point",
        "coordinates": [
          8.7454322,
          49.5218627
        ]
      },
      "id": "node/21409572"
    },
    {
      "type": "Feature",
      "properties": {
        "@id": "way/25552672",
        "landuse": "recreation_ground",
        "leisure": "water_park",
        "name": "Strandbad Waidsee",
        "opening_hours": "PH,Mo-Su 09:00-20:30",
        "phone": "+49 6201 53270",
        "website": "https://www.weinheim.de/servlet/PB/menu/1060230/",
        "@geometry": "center"
      },
      "geometry": {
        "type": "Point",
        "coordinates": [
          8.6420556,
          49.5345099
        ]
      },
      "id": "way/25552672"
    },
    {
      "type": "Feature",
      "properties": {
        "@id": "way/29262803",
        "leisure": "park",
        "name": "Rosenanlage",
        "@geometry": "center"
      },
      "geometry": {
        "type": "Point",
        "coordinates": [
          8.6670186,
          49.5451481
        ]
      },
      "id": "way/29262803"
    },
    {
      "type": "Feature",
      "properties": {
        "@id": "way/29594866",
        "access": "yes",
        "leisure": "playground",
        "@geometry": "center"
      },
      "geometry": {
        "type": "Point",
        "coordinates": [
          8.6590449,
          49.5212119
        ]
      },
      "id": "way/29594866"
    },
    {
      "type": "Feature",
      "properties": {
        "@id": "way/31010797",
        "landuse": "recreation_ground",
        "name": "Miramar Sauna und FKK",
        "nudism": "yes",
        "sport": "swimming",
        "@geometry": "center"
      },
      "geometry": {
        "type": "Point",
        "coordinates": [
          8.6405327,
          49.5327757
        ]
      },
      "id": "way/31010797"
    },
    {
      "type": "Feature",
      "properties": {
        "@id": "way/33626765",
        "access": "yes",
        "leisure": "playground",
        "name": "Spiel- und Bolzplatz Hundewiese",
        "@geometry": "center"
      },
      "geometry": {
        "type": "Point",
        "coordinates": [
          8.6427581,
          49.5865744
        ]
      },
      "id": "way/33626765"
    },
    {
      "type": "Feature",
      "properties": {
        "@id": "way/33892575",
        "leisure": "playground",
        "name": "Am Drachenstein",
        "@geometry": "center"
      },
      "geometry": {
        "type": "Point",
        "coordinates": [
          8.6840801,
          49.5422091
        ]
      },
      "id": "way/33892575"
    },
    {
      "type": "Feature",
      "properties": {
        "@id": "way/41928108",
        "access": "yes",
        "leisure": "playground",
        "@geometry": "center"
      },
      "geometry": {
        "type": "Point",
        "coordinates": [
          8.663398,
          49.539348
        ]
      },
      "id": "way/41928108"
    },
    {
      "type": "Feature",
      "properties": {
        "@id": "way/60914203",
        "leisure": "park",
        "@geometry": "center"
      },
      "geometry": {
        "type": "Point",
        "coordinates": [
          8.6622087,
          49.5426159
        ]
      },
      "id": "way/60914203"
    },
    {
      "type": "Feature",
      "properties": {
        "@id": "way/61452770",
        "leisure": "park",
        "name": "Unterer Bürgerpark",
        "@geometry": "center"
      },
      "geometry": {
        "type": "Point",
        "coordinates": [
          8.6680009,
          49.552268
        ]
      },
      "id": "way/61452770"
    },
    {
      "type": "Feature",
      "properties": {
        "@id": "way/61496161",
        "leisure": "playground",
        "@geometry": "center"
      },
      "geometry": {
        "type": "Point",
        "coordinates": [
          8.6657553,
          49.5425812
        ]
      },
      "id": "way/61496161"
    },
    {
      "type": "Feature",
      "properties": {
        "@id": "way/94544683",
        "addr:city": "Weinheim",
        "addr:country": "DE",
        "addr:housenumber": "21",
        "addr:postcode": "69469",
        "addr:street": "Bergstraße",
        "brand": "Aldi",
        "brand:wikidata": "Q125054",
        "brand:wikipedia": "en:Aldi",
        "building": "retail",
        "building:levels": "1",
        "check_date": "2022-08-25",
        "internet_access": "wlan",
        "internet_access:fee": "no",
        "name": "ALDI Süd",
        "opening_hours": "Mo-Sa 08:00-20:00; Su,PH off",
        "payment:mastercard": "yes",
        "payment:visa": "yes",
        "roof:levels": "1",
        "roof:shape": "gabled",
        "shop": "supermarket",
        "website": "https://aldi-sued.de/",
        "wheelchair": "yes",
        "@geometry": "center"
      },
      "geometry": {
        "type": "Point",
        "coordinates": [
          8.6639836,
          49.5483752
        ]
      },
      "id": "way/94544683"
    },
    {
      "type": "Feature",
      "properties": {
        "@id": "way/94544687",
        "addr:city": "Weinheim",
        "addr:country": "DE",
        "addr:housenumber": "19-25",
        "addr:postcode": "69469",
        "addr:street": "Bergstraße",
        "brand": "dm",
        "brand:wikidata": "Q266572",
        "brand:wikipedia": "en:Dm-drogerie markt",
        "building": "retail",
        "building:levels": "1",
        "check_date": "2022-08-25",
        "internet_access": "wlan",
        "internet_access:fee": "no",
        "name": "dm",
        "opening_hours": "Mo-Sa 08:00-20:00; Su,PH off",
        "payment:mastercard": "yes",
        "payment:visa": "yes",
        "phone": "+49 6201 2556960",
        "roof:levels": "1",
        "roof:shape": "gabled",
        "shop": "chemist",
        "website": "https://www.dm.de/store/de-1728/weinheim/bergstrasse-19-25/",
        "wheelchair": "yes",
        "@geometry": "center"
      },
      "geometry": {
        "type": "Point",
        "coordinates": [
          8.6635185,
          49.5477779
        ]
      },
      "id": "way/94544687"
    },
    {
      "type": "Feature",
      "properties": {
        "@id": "way/98754765",
        "leisure": "playground",
        "@geometry": "center"
      },
      "geometry": {
        "type": "Point",
        "coordinates": [
          8.655374,
          49.5445579
        ]
      },
      "id": "way/98754765"
    },
    {
      "type": "Feature",
      "properties": {
        "@id": "way/101318239",
        "leisure": "playground",
        "@geometry": "center"
      },
      "geometry": {
        "type": "Point",
        "coordinates": [
          8.6541226,
          49.5450653
        ]
      },
      "id": "way/101318239"
    },
    {
      "type": "Feature",
      "properties": {
        "@id": "way/101318240",
        "access": "yes",
        "leisure": "playground",
        "@geometry": "center"
      },
      "geometry": {
        "type": "Point",
        "coordinates": [
          8.6568362,
          49.5480365
        ]
      },
      "id": "way/101318240"
    },
    {
      "type": "Feature",
      "properties": {
        "@id": "way/105137598",
        "leisure": "park",
        "@geometry": "center"
      },
      "geometry": {
        "type": "Point",
        "coordinates": [
          8.6559646,
          49.5490137
        ]
      },
      "id": "way/105137598"
    },
    {
      "type": "Feature",
      "properties": {
        "@id": "way/111396135",
        "leisure": "park",
        "@geometry": "center"
      },
      "geometry": {
        "type": "Point",
        "coordinates": [
          8.744381,
          49.5109532
        ]
      },
      "id": "way/111396135"
    },
    {
      "type": "Feature",
      "properties": {
        "@id": "way/118392795",
        "amenity": "kindergarten",
        "building": "yes",
        "@geometry": "center"
      },
      "geometry": {
        "type": "Point",
        "coordinates": [
          8.6834087,
          49.5412892
        ]
      },
      "id": "way/118392795"
    },
    {
      "type": "Feature",
      "properties": {
        "@id": "node/128450017",
        "addr:city": "Weinheim",
        "addr:housenumber": "31",
        "addr:postcode": "69469",
        "addr:street": "Bergstraße",
        "amenity": "pharmacy",
        "check_date": "2022-10-29",
        "contact:email": "apobergstrasse@t-online.de",
        "contact:phone": "+49 6201 12030",
        "dispensing": "yes",
        "drive_through": "no",
        "healthcare": "pharmacy",
        "name": "Apotheke an der Bergstraße",
        "opening_hours": "Mo-Fr 08:00-19:00; Sa 08:30-13:00",
        "website": "http://apotheke-in-weinheim.de",
        "wheelchair": "limited"
      },
      "geometry": {
        "type": "Point",
        "coordinates": [
          8.66398,
          49.5489848
        ]
      },
      "id": "node/128450017"
    },
    {
      "type": "Feature",
      "properties": {
        "@id": "way/133297644",
        "addr:city": "Weinheim",
        "addr:country": "DE",
        "addr:housenumber": "19",
        "addr:postcode": "69469",
        "addr:street": "Kaiserstraße",
        "amenity": "school",
        "name": "Sepp-Herberger-Grundschule",
        "phone": "+49-6201-52616",
        "website": "http://www.sepp-herberger-gs.de/",
        "@geometry": "center"
      },
      "geometry": {
        "type": "Point",
        "coordinates": [
          8.6658422,
          49.5205578
        ]
      },
      "id": "way/133297644"
    },
    {
      "type": "Feature",
      "properties": {
        "@id": "way/136757776",
        "leisure": "park",
        "@geometry": "center"
      },
      "geometry": {
        "type": "Point",
        "coordinates": [
          8.6532822,
          49.5446893
        ]
      },
      "id": "way/136757776"
    },
    {
      "type": "Feature",
      "properties": {
        "@id": "way/137433524",
        "addr:city": "Weinheim",
        "addr:country": "DE",
        "addr:housenumber": "1",
        "addr:postcode": "69469",
        "addr:street": "Blumenstraße",
        "building": "apartments",
        "name": "Grimminger",
        "opening_hours": "Mo-Fr 06:00-18:00; Sa 06:00-13:00; Su 07:00-12:00",
        "shop": "bakery",
        "wheelchair": "no",
        "@geometry": "center"
      },
      "geometry": {
        "type": "Point",
        "coordinates": [
          8.6486569,
          49.545079
        ]
      },
      "id": "way/137433524"
    },
    {
      "type": "Feature",
      "properties": {
        "@id": "way/137536986",
        "leisure": "playground",
        "@geometry": "center"
      },
      "geometry": {
        "type": "Point",
        "coordinates": [
          8.6522893,
          49.546541
        ]
      },
      "id": "way/137536986"
    },
    {
      "type": "Feature",
      "properties": {
        "@id": "way/137536988",
        "leisure": "playground",
        "@geometry": "center"
      },
      "geometry": {
        "type": "Point",
        "coordinates": [
          8.6523385,
          49.5454783
        ]
      },
      "id": "way/137536988"
    },
    {
      "type": "Feature",
      "properties": {
        "@id": "way/137536991",
        "leisure": "playground",
        "@geometry": "center"
      },
      "geometry": {
        "type": "Point",
        "coordinates": [
          8.6521235,
          49.5458681
        ]
      },
      "id": "way/137536991"
    },
    {
      "type": "Feature",
      "properties": {
        "@id": "way/137536993",
        "access": "yes",
        "leisure": "playground",
        "wheelchair": "no",
        "@geometry": "center"
      },
      "geometry": {
        "type": "Point",
        "coordinates": [
          8.6505554,
          49.5448914
        ]
      },
      "id": "way/137536993"
    },
    {
      "type": "Feature",
      "properties": {
        "@id": "way/143247346",
        "leisure": "playground",
        "@geometry": "center"
      },
      "geometry": {
        "type": "Point",
        "coordinates": [
          8.6524409,
          49.5417288
        ]
      },
      "id": "way/143247346"
    },
    {
      "type": "Feature",
      "properties": {
        "@id": "way/156661043",
        "access": "yes",
        "leisure": "playground",
        "operator": "Stadt Weinheim",
        "@geometry": "center"
      },
      "geometry": {
        "type": "Point",
        "coordinates": [
          8.6480408,
          49.5473052
        ]
      },
      "id": "way/156661043"
    },
    {
      "type": "Feature",
      "properties": {
        "@id": "way/156763825",
        "amenity": "kindergarten",
        "building": "yes",
        "name": "Kindergarten St. Marien (Haus 3)",
        "@geometry": "center"
      },
      "geometry": {
        "type": "Point",
        "coordinates": [
          8.6502637,
          49.5469457
        ]
      },
      "id": "way/156763825"
    },
    {
      "type": "Feature",
      "properties": {
        "@id": "way/157315886",
        "addr:city": "Weinheim",
        "addr:housenumber": "29",
        "addr:postcode": "69469",
        "addr:street": "Freiburger Straße",
        "brand": "PENNY",
        "brand:wikidata": "Q284688",
        "brand:wikipedia": "en:Penny (supermarket)",
        "building": "retail",
        "building:levels": "1",
        "name": "PENNY",
        "opening_hours": "Mo-Sa 08:00-22:00",
        "shop": "supermarket",
        "@geometry": "center"
      },
      "geometry": {
        "type": "Point",
        "coordinates": [
          8.6334334,
          49.5486312
        ]
      },
      "id": "way/157315886"
    },
    {
      "type": "Feature",
      "properties": {
        "@id": "way/160224185",
        "addr:housenumber": "11",
        "addr:street": "In der Dell",
        "amenity": "school",
        "name": "Theodor-Heuss-Grundschule",
        "@geometry": "center"
      },
      "geometry": {
        "type": "Point",
        "coordinates": [
          8.7389558,
          49.5108008
        ]
      },
      "id": "way/160224185"
    },
    {
      "type": "Feature",
      "properties": {
        "@id": "way/160224186",
        "addr:city": "Weinheim",
        "addr:housenumber": "11/1",
        "addr:postcode": "69469",
        "addr:street": "In der Dell",
        "amenity": "kindergarten",
        "building": "house",
        "name": "Evangelischer Kindergarten",
        "source:geometry": "Maps4BW, LGL, www.lgl-bw.de",
        "@geometry": "center"
      },
      "geometry": {
        "type": "Point",
        "coordinates": [
          8.7384088,
          49.5109376
        ]
      },
      "id": "way/160224186"
    },
    {
      "type": "Feature",
      "properties": {
        "@id": "way/160763887",
        "amenity": "school",
        "name": "Wald-Grundschule",
        "@geometry": "center"
      },
      "geometry": {
        "type": "Point",
        "coordinates": [
          8.6817431,
          49.5413236
        ]
      },
      "id": "way/160763887"
    },
    {
      "type": "Feature",
      "properties": {
        "@id": "way/161067330",
        "access": "yes",
        "leisure": "playground",
        "@geometry": "center"
      },
      "geometry": {
        "type": "Point",
        "coordinates": [
          8.6629394,
          49.5297235
        ]
      },
      "id": "way/161067330"
    },
    {
      "type": "Feature",
      "properties": {
        "@id": "way/161620101",
        "addr:city": "Weinheim",
        "addr:country": "DE",
        "addr:housenumber": "7",
        "addr:postcode": "69469",
        "addr:street": "Gewerbestraße",
        "building": "retail",
        "building:levels": "2",
        "name": "Marktkauf",
        "opening_hours": "Mo-Sa 08:00-22:00",
        "operator": "Edeka",
        "roof:shape": "flat",
        "shop": "supermarket",
        "source": "survey",
        "wheelchair": "yes",
        "@geometry": "center"
      },
      "geometry": {
        "type": "Point",
        "coordinates": [
          8.6578691,
          49.5345041
        ]
      },
      "id": "way/161620101"
    },
    {
      "type": "Feature",
      "properties": {
        "@id": "way/162092436",
        "highway": "bus_stop",
        "name": "Eichenweg",
        "public_transport": "platform",
        "shelter": "yes",
        "@geometry": "center"
      },
      "geometry": {
        "type": "Point",
        "coordinates": [
          8.6423764,
          49.5481217
        ]
      },
      "id": "way/162092436"
    },
    {
      "type": "Feature",
      "properties": {
        "@id": "way/162092652",
        "leisure": "playground",
        "@geometry": "center"
      },
      "geometry": {
        "type": "Point",
        "coordinates": [
          8.644792,
          49.5479905
        ]
      },
      "id": "way/162092652"
    },
    {
      "type": "Feature",
      "properties": {
        "@id": "way/176589713",
        "landuse": "recreation_ground",
        "name": "Außenbereich Therme+Erlebnisbad",
        "@geometry": "center"
      },
      "geometry": {
        "type": "Point",
        "coordinates": [
          8.6429075,
          49.5335305
        ]
      },
      "id": "way/176589713"
    },
    {
      "type": "Feature",
      "properties": {
        "@id": "way/176589714",
        "addr:city": "Weinheim",
        "addr:country": "DE",
        "addr:housenumber": "100",
        "addr:postcode": "69469",
        "addr:street": "Waidallee",
        "email": "info@miramar-bad.de",
        "fax": "+49 6201 600048",
        "landuse": "recreation_ground",
        "leisure": "water_park",
        "name": "Miramar",
        "opening_hours": "Mo-Th 09:30-22:00, Fr 09:30-24:00, Sa 09:00-24:00, Su 09:00-22:00; PH 09:00-22:00",
        "phone": "+49 6201 60000",
        "website": "https://www.miramar-bad.de/",
        "wikidata": "Q56771273",
        "@geometry": "center"
      },
      "geometry": {
        "type": "Point",
        "coordinates": [
          8.6414423,
          49.5329604
        ]
      },
      "id": "way/176589714"
    },
    {
      "type": "Feature",
      "properties": {
        "@id": "way/179941639",
        "addr:city": "Weinheim",
        "addr:housenumber": "31",
        "addr:postcode": "69469",
        "addr:street": "Freiburger Straße",
        "brand": "Norma",
        "brand:wikidata": "Q450180",
        "brand:wikipedia": "de:Norma (Supermarkt)",
        "building": "yes",
        "name": "Norma",
        "roof:shape": "hipped",
        "shop": "supermarket",
        "wheelchair": "yes",
        "@geometry": "center"
      },
      "geometry": {
        "type": "Point",
        "coordinates": [
          8.6354081,
          49.5483064
        ]
      },
      "id": "way/179941639"
    },
    {
      "type": "Feature",
      "properties": {
        "@id": "way/180273073",
        "landuse": "recreation_ground",
        "@geometry": "center"
      },
      "geometry": {
        "type": "Point",
        "coordinates": [
          8.63754,
          49.544863
        ]
      },
      "id": "way/180273073"
    },
    {
      "type": "Feature",
      "properties": {
        "@id": "way/180354568",
        "landuse": "recreation_ground",
        "@geometry": "center"
      },
      "geometry": {
        "type": "Point",
        "coordinates": [
          8.6131123,
          49.5744663
        ]
      },
      "id": "way/180354568"
    },
    {
      "type": "Feature",
      "properties": {
        "@id": "way/180660932",
        "landuse": "recreation_ground",
        "@geometry": "center"
      },
      "geometry": {
        "type": "Point",
        "coordinates": [
          8.6318379,
          49.5371768
        ]
      },
      "id": "way/180660932"
    },
    {
      "type": "Feature",
      "properties": {
        "@id": "way/180660933",
        "landuse": "recreation_ground",
        "@geometry": "center"
      },
      "geometry": {
        "type": "Point",
        "coordinates": [
          8.6369535,
          49.5335042
        ]
      },
      "id": "way/180660933"
    },
    {
      "type": "Feature",
      "properties": {
        "@id": "way/181139096",
        "addr:city": "Weinheim",
        "addr:country": "DE",
        "addr:housenumber": "34",
        "addr:postcode": "69469",
        "addr:street": "Birkenweg",
        "amenity": "school",
        "name": "Albert-Schweitzer-Grundschule",
        "@geometry": "center"
      },
      "geometry": {
        "type": "Point",
        "coordinates": [
          8.6446485,
          49.5468118
        ]
      },
      "id": "way/181139096"
    },
    {
      "type": "Feature",
      "properties": {
        "@id": "way/181139135",
        "addr:city": "Weinheim",
        "addr:country": "DE",
        "addr:housenumber": "2",
        "addr:postcode": "69469",
        "addr:street": "Lärchenweg",
        "amenity": "kindergarten",
        "building": "yes",
        "name": "Kindergarten St. Marien (Haus 1)",
        "@geometry": "center"
      },
      "geometry": {
        "type": "Point",
        "coordinates": [
          8.6510789,
          49.5467887
        ]
      },
      "id": "way/181139135"
    },
    {
      "type": "Feature",
      "properties": {
        "@id": "way/182720347",
        "addr:city": "Weinheim",
        "addr:country": "DE",
        "addr:housenumber": "20",
        "addr:postcode": "69469",
        "addr:street": "Mierendorffstraße",
        "building": "yes",
        "name": "Bäckerei Tschakert",
        "shop": "bakery",
        "@geometry": "center"
      },
      "geometry": {
        "type": "Point",
        "coordinates": [
          8.6598888,
          49.544188
        ]
      },
      "id": "way/182720347"
    },
    {
      "type": "Feature",
      "properties": {
        "@id": "way/192301692",
        "access": "yes",
        "leisure": "playground",
        "@geometry": "center"
      },
      "geometry": {
        "type": "Point",
        "coordinates": [
          8.6410177,
          49.5418906
        ]
      },
      "id": "way/192301692"
    },
    {
      "type": "Feature",
      "properties": {
        "@id": "way/192301696",
        "leisure": "playground",
        "@geometry": "center"
      },
      "geometry": {
        "type": "Point",
        "coordinates": [
          8.6410859,
          49.5426058
        ]
      },
      "id": "way/192301696"
    },
    {
      "type": "Feature",
      "properties": {
        "@id": "way/192420328",
        "addr:city": "Weinheim",
        "addr:country": "DE",
        "addr:housenumber": "7",
        "addr:postcode": "69469",
        "addr:street": "Breslauer Straße",
        "amenity": "kindergarten",
        "name": "Kindergarten Kindernest",
        "website": "http://www.ekiwhm.de/kindergaerten/kindernest/",
        "@geometry": "center"
      },
      "geometry": {
        "type": "Point",
        "coordinates": [
          8.6401962,
          49.5441712
        ]
      },
      "id": "way/192420328"
    },
    {
      "type": "Feature",
      "properties": {
        "@id": "way/194093756",
        "leisure": "playground",
        "@geometry": "center"
      },
      "geometry": {
        "type": "Point",
        "coordinates": [
          8.6335948,
          49.5412745
        ]
      },
      "id": "way/194093756"
    },
    {
      "type": "Feature",
      "properties": {
        "@id": "way/194166417",
        "leisure": "playground",
        "@geometry": "center"
      },
      "geometry": {
        "type": "Point",
        "coordinates": [
          8.6316295,
          49.5447626
        ]
      },
      "id": "way/194166417"
    },
    {
      "type": "Feature",
      "properties": {
        "@id": "way/194166422",
        "leisure": "playground",
        "@geometry": "center"
      },
      "geometry": {
        "type": "Point",
        "coordinates": [
          8.6324213,
          49.543948
        ]
      },
      "id": "way/194166422"
    },
    {
      "type": "Feature",
      "properties": {
        "@id": "way/194660402",
        "addr:city": "Weinheim",
        "addr:country": "DE",
        "addr:housenumber": "15",
        "addr:postcode": "69469",
        "addr:street": "Kurt-Schumacher-Straße",
        "amenity": "kindergarten",
        "name": "Waldorfkindergarten Weinheim",
        "website": "https://www.waldorfkindergarten-weinheim.de/",
        "@geometry": "center"
      },
      "geometry": {
        "type": "Point",
        "coordinates": [
          8.6353562,
          49.5444361
        ]
      },
      "id": "way/194660402"
    },
    {
      "type": "Feature",
      "properties": {
        "@id": "way/194664085",
        "bench": "no",
        "bin": "no",
        "bus": "yes",
        "highway": "platform",
        "public_transport": "platform",
        "shelter": "no",
        "tactile_paving": "no",
        "@geometry": "center"
      },
      "geometry": {
        "type": "Point",
        "coordinates": [
          8.6304505,
          49.5450975
        ]
      },
      "id": "way/194664085"
    },
    {
      "type": "Feature",
      "properties": {
        "@id": "way/197513595",
        "addr:city": "Weinheim",
        "addr:country": "DE",
        "addr:housenumber": "1",
        "addr:postcode": "69469",
        "addr:street": "Kurt-Schumacher-Straße",
        "building": "yes",
        "name": "Markthaus Lebensmittel",
        "shop": "supermarket",
        "website": "http://www.markthaus-mannheim.de/",
        "@geometry": "center"
      },
      "geometry": {
        "type": "Point",
        "coordinates": [
          8.6383526,
          49.5438377
        ]
      },
      "id": "way/197513595"
    },
    {
      "type": "Feature",
      "properties": {
        "@id": "way/197771588",
        "leisure": "playground",
        "@geometry": "center"
      },
      "geometry": {
        "type": "Point",
        "coordinates": [
          8.637304,
          49.5427611
        ]
      },
      "id": "way/197771588"
    },
    {
      "type": "Feature",
      "properties": {
        "@id": "way/197771590",
        "leisure": "playground",
        "@geometry": "center"
      },
      "geometry": {
        "type": "Point",
        "coordinates": [
          8.6375175,
          49.5433709
        ]
      },
      "id": "way/197771590"
    },
    {
      "type": "Feature",
      "properties": {
        "@id": "way/205818695",
        "access": "yes",
        "leisure": "playground",
        "@geometry": "center"
      },
      "geometry": {
        "type": "Point",
        "coordinates": [
          8.6592387,
          49.5258914
        ]
      },
      "id": "way/205818695"
    },
    {
      "type": "Feature",
      "properties": {
        "@id": "way/210274953",
        "access": "yes",
        "leisure": "playground",
        "@geometry": "center"
      },
      "geometry": {
        "type": "Point",
        "coordinates": [
          8.6547523,
          49.5291026
        ]
      },
      "id": "way/210274953"
    },
    {
      "type": "Feature",
      "properties": {
        "@id": "way/210274954",
        "access": "yes",
        "leisure": "playground",
        "playground:basketswing": "yes",
        "playground:playhouse": "yes",
        "playground:roundabout": "yes",
        "playground:sandpit": "yes",
        "@geometry": "center"
      },
      "geometry": {
        "type": "Point",
        "coordinates": [
          8.6521503,
          49.5288317
        ]
      },
      "id": "way/210274954"
    },
    {
      "type": "Feature",
      "properties": {
        "@id": "way/210447444",
        "leisure": "park",
        "@geometry": "center"
      },
      "geometry": {
        "type": "Point",
        "coordinates": [
          8.6521521,
          49.5287882
        ]
      },
      "id": "way/210447444"
    },
    {
      "type": "Feature",
      "properties": {
        "@id": "way/210447446",
        "leisure": "park",
        "@geometry": "center"
      },
      "geometry": {
        "type": "Point",
        "coordinates": [
          8.6565146,
          49.5285232
        ]
      },
      "id": "way/210447446"
    },
    {
      "type": "Feature",
      "properties": {
        "@id": "way/210447448",
        "leisure": "park",
        "@geometry": "center"
      },
      "geometry": {
        "type": "Point",
        "coordinates": [
          8.6550316,
          49.527985
        ]
      },
      "id": "way/210447448"
    },
    {
      "type": "Feature",
      "properties": {
        "@id": "way/210447451",
        "leisure": "park",
        "@geometry": "center"
      },
      "geometry": {
        "type": "Point",
        "coordinates": [
          8.6548384,
          49.529283
        ]
      },
      "id": "way/210447451"
    },
    {
      "type": "Feature",
      "properties": {
        "@id": "way/223844103",
        "access": "yes",
        "leisure": "playground",
        "@geometry": "center"
      },
      "geometry": {
        "type": "Point",
        "coordinates": [
          8.6552594,
          49.527305
        ]
      },
      "id": "way/223844103"
    },
    {
      "type": "Feature",
      "properties": {
        "@id": "way/244396376",
        "addr:housenumber": "3",
        "addr:street": "Langmaasweg",
        "amenity": "kindergarten",
        "building": "yes",
        "name": "Kindergarten Nordlicht",
        "@geometry": "center"
      },
      "geometry": {
        "type": "Point",
        "coordinates": [
          8.6647705,
          49.5619519
        ]
      },
      "id": "way/244396376"
    },
    {
      "type": "Feature",
      "properties": {
        "@id": "node/247340910",
        "addr:city": "Weinheim",
        "addr:country": "DE",
        "addr:housenumber": "123",
        "addr:postcode": "69469",
        "addr:street": "Bergstraße",
        "amenity": "pharmacy",
        "check_date:opening_hours": "2022-11-05",
        "contact:email": "Info@apotheke-nordstadt.de",
        "contact:fax": "+49 6201 961294",
        "contact:phone": "+49 6201 17385",
        "contact:website": "http://www.apotheke-nordstadt.de/",
        "dispensing": "yes",
        "healthcare": "pharmacy",
        "name": "Nordstadt Apotheke",
        "opening_hours": "Mo-Fr 08:30-18:30; Sa 08:00-12:30",
        "operator": "Christian Wirth",
        "wheelchair": "limited"
      },
      "geometry": {
        "type": "Point",
        "coordinates": [
          8.6674415,
          49.5608293
        ]
      },
      "id": "node/247340910"
    },
    {
      "type": "Feature",
      "properties": {
        "@id": "way/276984964",
        "area": "yes",
        "bench": "yes",
        "bin": "yes",
        "bus": "yes",
        "height": "0.2",
        "highway": "bus_stop",
        "lit": "yes",
        "passenger_information_display": "yes",
        "public_transport": "platform",
        "ref": "1",
        "shelter": "yes",
        "source:height": "estimated",
        "tactile_paving": "yes",
        "wheelchair": "yes",
        "@geometry": "center"
      },
      "geometry": {
        "type": "Point",
        "coordinates": [
          8.6653379,
          49.5527874
        ]
      },
      "id": "way/276984964"
    },
    {
      "type": "Feature",
      "properties": {
        "@id": "way/276984965",
        "area": "yes",
        "bench": "yes",
        "bin": "yes",
        "bus": "yes",
        "covered": "yes",
        "height": "0.2",
        "highway": "bus_stop",
        "lit": "yes",
        "network": "Verkehrsverbund Rhein-Neckar",
        "network:guid": "DE-BW-VRN",
        "network:short": "VRN",
        "network:wikidata": "Q1553051",
        "network:wikipedia": "de:Verkehrsverbund Rhein-Neckar",
        "passenger_information_display": "yes",
        "public_transport": "platform",
        "ref": "2",
        "ref:IFOPT": "de:08226:4109:2:2",
        "ref:IFOPT:description": "Steig 2",
        "source:height": "estimated",
        "tactile_paving": "yes",
        "wheelchair": "yes",
        "@geometry": "center"
      },
      "geometry": {
        "type": "Point",
        "coordinates": [
          8.6655039,
          49.552997
        ]
      },
      "id": "way/276984965"
    },
    {
      "type": "Feature",
      "properties": {
        "@id": "way/276984966",
        "area": "yes",
        "bench": "yes",
        "bin": "yes",
        "bus": "yes",
        "covered": "yes",
        "height": "0.2",
        "highway": "bus_stop",
        "lit": "yes",
        "network": "Verkehrsverbund Rhein-Neckar",
        "passenger_information_display": "yes",
        "public_transport": "platform",
        "ref": "3",
        "ref:IFOPT": "de:08226:4109:2:3",
        "ref:IFOPT:description": "Steig 3",
        "source:height": "estimated",
        "tactile_paving": "yes",
        "wheelchair": "yes",
        "@geometry": "center"
      },
      "geometry": {
        "type": "Point",
        "coordinates": [
          8.6655928,
          49.5527516
        ]
      },
      "id": "way/276984966"
    },
    {
      "type": "Feature",
      "properties": {
        "@id": "way/276984967",
        "area": "yes",
        "bench": "yes",
        "bin": "yes",
        "bus": "yes",
        "covered": "yes",
        "height": "0.2",
        "highway": "bus_stop",
        "lit": "yes",
        "network": "Verkehrsverbund Rhein-Neckar",
        "passenger_information_display": "yes",
        "public_transport": "platform",
        "ref": "4",
        "ref:IFOPT": "de:08226:4109:2:4",
        "ref:IFOPT:description": "Steig 4",
        "source:height": "estimated",
        "tactile_paving": "yes",
        "wheelchair": "yes",
        "@geometry": "center"
      },
      "geometry": {
        "type": "Point",
        "coordinates": [
          8.6656921,
          49.55291
        ]
      },
      "id": "way/276984967"
    },
    {
      "type": "Feature",
      "properties": {
        "@id": "way/276984968",
        "area": "yes",
        "bench": "yes",
        "bin": "yes",
        "bus": "yes",
        "covered": "yes",
        "height": "0.2",
        "lit": "yes",
        "network": "Verkehrsverbund Rhein-Neckar",
        "passenger_information_display": "yes",
        "public_transport": "platform",
        "ref": "5",
        "ref:IFOPT": "de:08226:4109:2:5",
        "ref:IFOPT:description": "Steig 5",
        "source:height": "estimated",
        "tactile_paving": "yes",
        "wheelchair": "yes",
        "@geometry": "center"
      },
      "geometry": {
        "type": "Point",
        "coordinates": [
          8.6656296,
          49.5527358
        ]
      },
      "id": "way/276984968"
    },
    {
      "type": "Feature",
      "properties": {
        "@id": "way/276984969",
        "area": "yes",
        "bench": "yes",
        "bin": "yes",
        "bus": "yes",
        "covered": "yes",
        "height": "0.2",
        "highway": "bus_stop",
        "lit": "yes",
        "network": "Verkehrsverbund Rhein-Neckar",
        "passenger_information_display": "yes",
        "public_transport": "platform",
        "ref": "6",
        "ref:IFOPT": "de:08226:4109:2:6",
        "ref:IFOPT:description": "Steig 6",
        "source:height": "estimated",
        "tactile_paving": "yes",
        "wheelchair": "yes",
        "@geometry": "center"
      },
      "geometry": {
        "type": "Point",
        "coordinates": [
          8.6657255,
          49.552896
        ]
      },
      "id": "way/276984969"
    },
    {
      "type": "Feature",
      "properties": {
        "@id": "way/276984970",
        "area": "yes",
        "bench": "yes",
        "bin": "yes",
        "bus": "yes",
        "highway": "bus_stop",
        "lit": "yes",
        "passenger_information_display": "yes",
        "public_transport": "platform",
        "ref": "7",
        "ref:IFOPT": "de:08226:4109:2:7",
        "ref:IFOPT:description": "Steig 7",
        "shelter": "yes",
        "tactile_paving": "yes",
        "@geometry": "center"
      },
      "geometry": {
        "type": "Point",
        "coordinates": [
          8.6658591,
          49.5527926
        ]
      },
      "id": "way/276984970"
    },
    {
      "type": "Feature",
      "properties": {
        "@id": "node/286729033",
        "amenity": "kindergarten",
        "name": "Kindergarten \"Sternschnuppe\""
      },
      "geometry": {
        "type": "Point",
        "coordinates": [
          8.6361698,
          49.5437209
        ]
      },
      "id": "node/286729033"
    },
    {
      "type": "Feature",
      "properties": {
        "@id": "node/294586995",
        "leisure": "playground",
        "name": "TV Wünschmichelbach"
      },
      "geometry": {
        "type": "Point",
        "coordinates": [
          8.7495462,
          49.5136994
        ]
      },
      "id": "node/294586995"
    },
    {
      "type": "Feature",
      "properties": {
        "@id": "node/294846468",
        "amenity": "kindergarten",
        "name": "Regenbogen"
      },
      "geometry": {
        "type": "Point",
        "coordinates": [
          8.6719482,
          49.5523514
        ]
      },
      "id": "node/294846468"
    },
    {
      "type": "Feature",
      "properties": {
        "@id": "node/294846484",
        "name": "Emichs Backstube",
        "shop": "bakery",
        "wheelchair": "no"
      },
      "geometry": {
        "type": "Point",
        "coordinates": [
          8.6750546,
          49.5563701
        ]
      },
      "id": "node/294846484"
    },
    {
      "type": "Feature",
      "properties": {
        "@id": "node/294846490",
        "name": "Cafe Wolf",
        "opening_hours": "We 06:00-13:00; Sa 06:00-14:00",
        "phone": "+49620164214",
        "shop": "bakery",
        "website": "http://www.cafe-wolf.de"
      },
      "geometry": {
        "type": "Point",
        "coordinates": [
          8.6746138,
          49.551908
        ]
      },
      "id": "node/294846490"
    },
    {
      "type": "Feature",
      "properties": {
        "@id": "way/295409346",
        "addr:housenumber": "7",
        "addr:street": "Hammerweg",
        "amenity": "kindergarten",
        "building": "kindergarten",
        "building:levels": "1",
        "email": "kiga-waid@weinheim.de",
        "fax": "+49 6201 392112",
        "name": "Städt. Kindergarten \"Waid\"",
        "phone": "+49 6201 54091",
        "roof:levels": "1",
        "roof:shape": "skillion",
        "source": "LGL, www.lgl-bw.de",
        "website": "https://www.weinheim.de/servlet/PB/menu/1114683/index.html",
        "@geometry": "center"
      },
      "geometry": {
        "type": "Point",
        "coordinates": [
          8.6494194,
          49.5293765
        ]
      },
      "id": "way/295409346"
    },
    {
      "type": "Feature",
      "properties": {
        "@id": "way/295776176",
        "access": "yes",
        "leisure": "playground",
        "@geometry": "center"
      },
      "geometry": {
        "type": "Point",
        "coordinates": [
          8.6488858,
          49.5303777
        ]
      },
      "id": "way/295776176"
    },
    {
      "type": "Feature",
      "properties": {
        "@id": "way/295785236",
        "leisure": "park",
        "name": "Varces-Platz",
        "@geometry": "center"
      },
      "geometry": {
        "type": "Point",
        "coordinates": [
          8.6668638,
          49.5251945
        ]
      },
      "id": "way/295785236"
    },
    {
      "type": "Feature",
      "properties": {
        "@id": "way/295952016",
        "addr:city": "Weinheim",
        "addr:housenumber": "31",
        "addr:postcode": "69469",
        "addr:street": "Weinheimer Straße",
        "addr:suburb": "Lützelsachsen",
        "amenity": "school",
        "building": "yes",
        "email": "schulleitung@gs-luetzelsachsen.schule.bwl.de",
        "fax": "+49 6201 599307",
        "name": "Hans-Joachim-Gelberg- Grundschule Lützelsachsen",
        "operator": "Stadt",
        "phone": "+49 6201 51769",
        "website": "https://www.gelberg-grundschule.de/",
        "@geometry": "center"
      },
      "geometry": {
        "type": "Point",
        "coordinates": [
          8.6663023,
          49.5282577
        ]
      },
      "id": "way/295952016"
    },
    {
      "type": "Feature",
      "properties": {
        "@id": "node/296363993",
        "access": "yes",
        "leisure": "playground"
      },
      "geometry": {
        "type": "Point",
        "coordinates": [
          8.6711237,
          49.5450751
        ]
      },
      "id": "node/296363993"
    },
    {
      "type": "Feature",
      "properties": {
        "@id": "node/296363995",
        "addr:city": "Weinheim",
        "addr:country": "DE",
        "addr:housenumber": "86",
        "addr:postcode": "69469",
        "addr:street": "Hauptstraße",
        "amenity": "pharmacy",
        "check_date:opening_hours": "2021-12-23",
        "healthcare": "pharmacy",
        "name": "Apotheke am Karlsberg",
        "opening_hours": "Mo-Fr 08:30-19:00; Sa 09:00-16:00",
        "wheelchair": "yes"
      },
      "geometry": {
        "type": "Point",
        "coordinates": [
          8.6718095,
          49.5492231
        ]
      },
      "id": "node/296363995"
    },
    {
      "type": "Feature",
      "properties": {
        "@id": "node/296420664",
        "access": "yes",
        "leisure": "playground"
      },
      "geometry": {
        "type": "Point",
        "coordinates": [
          8.6600926,
          49.5304967
        ]
      },
      "id": "node/296420664"
    },
    {
      "type": "Feature",
      "properties": {
        "@id": "node/298530038",
        "bench": "no",
        "bus": "yes",
        "highway": "bus_stop",
        "name": "Weinheim Lindenstraße",
        "network": "Verkehrsverbund Rhein-Neckar",
        "network:guid": "DE-BW-VRN",
        "network:short": "VRN",
        "network:wikidata": "Q1553051",
        "network:wikipedia": "de:Verkehrsverbund Rhein-Neckar",
        "public_transport": "platform",
        "shelter": "no",
        "source": "survey",
        "tactile_paving": "yes"
      },
      "geometry": {
        "type": "Point",
        "coordinates": [
          8.6746739,
          49.5504827
        ]
      },
      "id": "node/298530038"
    },
    {
      "type": "Feature",
      "properties": {
        "@id": "way/309858480",
        "area": "yes",
        "bench": "yes",
        "bin": "yes",
        "bus": "yes",
        "lit": "yes",
        "public_transport": "platform",
        "railway": "platform",
        "shelter": "yes",
        "tactile_paving": "yes",
        "train": "yes",
        "wheelchair": "yes",
        "wheelchair:description": "Straßenbahnhaltestelle mit erhöhtem Bahnsteig auf voller Länge",
        "@geometry": "center"
      },
      "geometry": {
        "type": "Point",
        "coordinates": [
          8.6570944,
          49.5268842
        ]
      },
      "id": "way/309858480"
    },
    {
      "type": "Feature",
      "properties": {
        "@id": "node/310581091",
        "addr:city": "Weinheim",
        "addr:country": "DE",
        "addr:housenumber": "80",
        "addr:street": "Hauptstraße",
        "amenity": "pharmacy",
        "contact:fax": "+49 6201 185364",
        "contact:phone": "+49 6201 66575",
        "dispensing": "yes",
        "healthcare": "pharmacy",
        "name": "Antonius Apotheke",
        "opening_hours": "Mo-Fr 08:30-19:00; Sa 08:30-14:00",
        "operator": "Ulla Burkhardt-Weber",
        "website": "https://www.antonius-apotheke-weinheim.de/",
        "wheelchair": "yes"
      },
      "geometry": {
        "type": "Point",
        "coordinates": [
          8.6717301,
          49.5497544
        ]
      },
      "id": "node/310581091"
    },
    {
      "type": "Feature",
      "properties": {
        "@id": "way/310662474",
        "addr:city": "Weinheim",
        "addr:country": "DE",
        "addr:housenumber": "34",
        "addr:postcode": "69469",
        "addr:street": "Fichtestraße",
        "amenity": "kindergarten",
        "building": "yes",
        "name": "Kinderhaus Weinheim",
        "@geometry": "center"
      },
      "geometry": {
        "type": "Point",
        "coordinates": [
          8.6567202,
          49.5514295
        ]
      },
      "id": "way/310662474"
    },
    {
      "type": "Feature",
      "properties": {
        "@id": "node/312805439",
        "leisure": "playground",
        "name": "Gorxheimer Tal"
      },
      "geometry": {
        "type": "Point",
        "coordinates": [
          8.6877993,
          49.5413426
        ]
      },
      "id": "node/312805439"
    },
    {
      "type": "Feature",
      "properties": {
        "@id": "node/312807563",
        "addr:city": "Weinheim",
        "addr:housenumber": "74",
        "addr:postcode": "69469",
        "addr:street": "Müllheimer Talstraße",
        "name": "Kadel",
        "opening_hours": "Mo-Fr 06:00-12:00; Sa 06:30-12:00; Su 07:00-11:00",
        "shop": "bakery",
        "wheelchair": "yes"
      },
      "geometry": {
        "type": "Point",
        "coordinates": [
          8.6795663,
          49.5431934
        ]
      },
      "id": "node/312807563"
    },
    {
      "type": "Feature",
      "properties": {
        "@id": "way/313807144",
        "addr:city": "Weinheim",
        "addr:housenumber": "6a",
        "addr:postcode": "69469",
        "addr:street": "Bismarckstraße",
        "amenity": "childcare",
        "building": "yes",
        "email": "kita-buergerpark@weinheim.de",
        "min_age": "2",
        "name": "KiTa Bügerpark",
        "official_name": "Kindertagesstätte Bügerpark",
        "opening_hours": "Mo-Fr 07:15-17:00",
        "operator": "Stadt Weinheim",
        "operator:type": "government",
        "phone": "+49 6201 12864",
        "website": "https://www.weinheim.de/startseite/stadtthemen/kindertagesstaetten.html",
        "@geometry": "center"
      },
      "geometry": {
        "type": "Point",
        "coordinates": [
          8.6704526,
          49.5515617
        ]
      },
      "id": "way/313807144"
    },
    {
      "type": "Feature",
      "properties": {
        "@id": "way/317399018",
        "addr:city": "Weinheim",
        "addr:country": "DE",
        "addr:housenumber": "1",
        "addr:street": "Schlossgartenstraße",
        "amenity": "kindergarten",
        "building": "yes",
        "@geometry": "center"
      },
      "geometry": {
        "type": "Point",
        "coordinates": [
          8.6674171,
          49.5451566
        ]
      },
      "id": "way/317399018"
    },
    {
      "type": "Feature",
      "properties": {
        "@id": "node/320040840",
        "shop": "bakery"
      },
      "geometry": {
        "type": "Point",
        "coordinates": [
          8.6628951,
          49.5538347
        ]
      },
      "id": "node/320040840"
    },
    {
      "type": "Feature",
      "properties": {
        "@id": "node/320644538",
        "brand": "Aldi Süd",
        "brand:wikidata": "Q41171672",
        "brand:wikipedia": "en:Aldi",
        "name": "Aldi Süd",
        "shoes": "supermarket",
        "shop": "supermarket",
        "wheelchair": "yes"
      },
      "geometry": {
        "type": "Point",
        "coordinates": [
          8.668739,
          49.5584441
        ]
      },
      "id": "node/320644538"
    },
    {
      "type": "Feature",
      "properties": {
        "@id": "node/322594430",
        "bench": "no",
        "bin": "no",
        "bus": "yes",
        "highway": "bus_stop",
        "lit": "yes",
        "name": "Weinheim Weberstraße",
        "network": "VRN",
        "public_transport": "platform",
        "shelter": "no",
        "tactile_paving": "yes"
      },
      "geometry": {
        "type": "Point",
        "coordinates": [
          8.663568,
          49.5420445
        ]
      },
      "id": "node/322594430"
    },
    {
      "type": "Feature",
      "properties": {
        "@id": "node/323242752",
        "name": "Schneiders Lädl",
        "opening_hours": "Tu-Sa 07:30-12:00; Tu, Th, Fr 15:00-18:00",
        "shop": "bakery"
      },
      "geometry": {
        "type": "Point",
        "coordinates": [
          8.6696407,
          49.5189351
        ]
      },
      "id": "node/323242752"
    },
    {
      "type": "Feature",
      "properties": {
        "@id": "node/323243973",
        "addr:housenumber": "8",
        "addr:street": "Sommergasse",
        "check_date:opening_hours": "2022-10-16",
        "name": "Frischemarkt Schröder",
        "opening_hours": "Mo-Fr 08:00-18:30; Sa 08:00-15:00; Su,PH off",
        "shop": "supermarket",
        "wheelchair": "limited"
      },
      "geometry": {
        "type": "Point",
        "coordinates": [
          8.6667622,
          49.5273033
        ]
      },
      "id": "node/323243973"
    },
    {
      "type": "Feature",
      "properties": {
        "@id": "node/323243977",
        "addr:housenumber": "80",
        "addr:street": "Sommergasse",
        "amenity": "pharmacy",
        "dispensing": "yes",
        "email": "stern.apo.weinheim@pharma-online.de",
        "fax": "+49 6201 59 28 81",
        "name": "Stern-Apotheke",
        "opening_hours": "Mo-Fr 08:00-18:30; Sa 08:00-13:00",
        "phone": "+49 6201 59 28 80",
        "website": "https://www.stern-apotheke-weinheim.de/",
        "wheelchair": "no"
      },
      "geometry": {
        "type": "Point",
        "coordinates": [
          8.6663338,
          49.5272976
        ]
      },
      "id": "node/323243977"
    },
    {
      "type": "Feature",
      "properties": {
        "@id": "node/323246360",
        "amenity": "kindergarten",
        "name": "Evangelischer Kindergarten"
      },
      "geometry": {
        "type": "Point",
        "coordinates": [
          8.6677835,
          49.5208449
        ]
      },
      "id": "node/323246360"
    },
    {
      "type": "Feature",
      "properties": {
        "@id": "way/325811331",
        "addr:city": "Weinheim",
        "addr:housenumber": "16",
        "addr:street": "Fichtestraße",
        "amenity": "kindergarten",
        "building": "yes",
        "name": "Pusteblume",
        "@geometry": "center"
      },
      "geometry": {
        "type": "Point",
        "coordinates": [
          8.6573267,
          49.5537782
        ]
      },
      "id": "way/325811331"
    },
    {
      "type": "Feature",
      "properties": {
        "@id": "way/326512673",
        "addr:city": "Weinheim",
        "addr:housenumber": "6d",
        "addr:postcode": "69469",
        "addr:street": "Bismarckstraße",
        "amenity": "childcare",
        "building": "yes",
        "email": "krippe-buergerpark@weinheim.de",
        "max_age": "3",
        "min_age": "1",
        "name": "Krippe Bürgerpark",
        "official_name": "Kinderkrippe Bürgerpark",
        "opening_hours": "Mo-Fr 07:15-17:00",
        "operator": "Stadt Weinheim",
        "operator:type": "public",
        "phone": "+49 6201 2909071",
        "website": "https://www.weinheim.de/startseite/stadtthemen/kinderkrippen.html",
        "@geometry": "center"
      },
      "geometry": {
        "type": "Point",
        "coordinates": [
          8.6707706,
          49.551263
        ]
      },
      "id": "way/326512673"
    },
    {
      "type": "Feature",
      "properties": {
        "@id": "node/339339429",
        "access": "yes",
        "leisure": "playground"
      },
      "geometry": {
        "type": "Point",
        "coordinates": [
          8.6679517,
          49.5577868
        ]
      },
      "id": "node/339339429"
    },
    {
      "type": "Feature",
      "properties": {
        "@id": "node/344643227",
        "bus": "yes",
        "highway": "bus_stop",
        "name": "Weinheim Krankenhaus GRN",
        "network": "VRN",
        "old_name": "Kreiskrankenhaus",
        "public_transport": "platform"
      },
      "geometry": {
        "type": "Point",
        "coordinates": [
          8.646567,
          49.5493867
        ]
      },
      "id": "node/344643227"
    },
    {
      "type": "Feature",
      "properties": {
        "@id": "node/344643228",
        "bus": "yes",
        "highway": "bus_stop",
        "name": "Weinheim Krankenhaus GRN",
        "network": "Verkehrsverbund Rhein-Neckar",
        "network:guid": "DE-BW-VRN",
        "network:short": "VRN",
        "network:wikidata": "Q1553051",
        "network:wikipedia": "de:Verkehrsverbund Rhein-Neckar",
        "old_name": "Kreiskrankenhaus",
        "public_transport": "platform",
        "shelter": "yes",
        "tactile_paving": "yes",
        "wheelchair": "yes"
      },
      "geometry": {
        "type": "Point",
        "coordinates": [
          8.6456779,
          49.5485841
        ]
      },
      "id": "node/344643228"
    },
    {
      "type": "Feature",
      "properties": {
        "@id": "way/347204506",
        "addr:city": "Weinheim",
        "addr:housenumber": "9",
        "addr:postcode": "69469",
        "addr:street": "Johannisstraße",
        "amenity": "kindergarten",
        "building": "yes",
        "@geometry": "center"
      },
      "geometry": {
        "type": "Point",
        "coordinates": [
          8.6713826,
          49.5555588
        ]
      },
      "id": "way/347204506"
    },
    {
      "type": "Feature",
      "properties": {
        "@id": "node/364771886",
        "bus": "yes",
        "highway": "bus_stop",
        "name": "Daimler Straße",
        "network": "VRN"
      },
      "geometry": {
        "type": "Point",
        "coordinates": [
          8.6204372,
          49.5467426
        ]
      },
      "id": "node/364771886"
    },
    {
      "type": "Feature",
      "properties": {
        "@id": "node/364771892",
        "bus": "yes",
        "highway": "bus_stop",
        "name": "Freiburger Straße",
        "network": "VRN",
        "public_transport": "platform",
        "shelter": "yes"
      },
      "geometry": {
        "type": "Point",
        "coordinates": [
          8.6293971,
          49.5453848
        ]
      },
      "id": "node/364771892"
    },
    {
      "type": "Feature",
      "properties": {
        "@id": "node/365565771",
        "addr:city": "Weinheim",
        "addr:housenumber": "112e",
        "addr:postcode": "69469",
        "addr:street": "Grundelbachstraße",
        "amenity": "pharmacy",
        "contact:email": "wachenbergapo@aol.com",
        "contact:fax": "+49 6201 15021",
        "contact:phone": "+49 6201 13620",
        "dispensing": "yes",
        "healthcare": "pharmacy",
        "name": "Apotheke am Wachenberg",
        "opening_hours": "Mo-Fr 08:30-18:30; We 08:30-18:00; Sa 08:30-13:00",
        "operator": "Susanne Kiss",
        "website": "http://www.wachenbergapotheke.de/",
        "wheelchair": "yes"
      },
      "geometry": {
        "type": "Point",
        "coordinates": [
          8.6761386,
          49.5523741
        ]
      },
      "id": "node/365565771"
    },
    {
      "type": "Feature",
      "properties": {
        "@id": "node/371646506",
        "addr:city": "Weinheim",
        "addr:housenumber": "4",
        "addr:street": "Bismarckstraße",
        "amenity": "pharmacy",
        "contact:phone": "+49 6201 16480",
        "dispensing": "yes",
        "healthcare": "pharmacy",
        "name": "Bismarck-Apotheke"
      },
      "geometry": {
        "type": "Point",
        "coordinates": [
          8.6694063,
          49.5518217
        ]
      },
      "id": "node/371646506"
    },
    {
      "type": "Feature",
      "properties": {
        "@id": "way/378884007",
        "access": "yes",
        "leisure": "playground",
        "@geometry": "center"
      },
      "geometry": {
        "type": "Point",
        "coordinates": [
          8.6600067,
          49.522485
        ]
      },
      "id": "way/378884007"
    },
    {
      "type": "Feature",
      "properties": {
        "@id": "way/390794830",
        "leisure": "park",
        "name": "Prinz-Friedrich-Anlage",
        "@geometry": "center"
      },
      "geometry": {
        "type": "Point",
        "coordinates": [
          8.6611264,
          49.5783617
        ]
      },
      "id": "way/390794830"
    },
    {
      "type": "Feature",
      "properties": {
        "@id": "way/416519528",
        "addr:city": "Weinheim",
        "addr:country": "DE",
        "addr:housenumber": "10",
        "addr:postcode": "69469",
        "addr:street": "Viernheimer Straße",
        "amenity": "kindergarten",
        "building": "yes",
        "contact:email": "kindergarten.freudenberg@postillion.org",
        "contact:website": "https://www.postillion.org/einrichtung/63",
        "name": "Kindergarten Freudenberg",
        "opening_hours": "Mo-Fr 07:00-17:00; Sa,Su,PH off",
        "operator": "Der Postillion e.V.",
        "wheelchair": "yes",
        "@geometry": "center"
      },
      "geometry": {
        "type": "Point",
        "coordinates": [
          8.6639251,
          49.5538761
        ]
      },
      "id": "way/416519528"
    },
    {
      "type": "Feature",
      "properties": {
        "@id": "way/425827167",
        "addr:city": "Weinheim",
        "addr:country": "DE",
        "addr:housenumber": "4",
        "addr:postcode": "69469",
        "addr:street": "Kurpfalzstraße",
        "addr:suburb": "Lützelsachsen",
        "amenity": "kindergarten",
        "building": "yes",
        "capacity": "66",
        "max_age": "6",
        "min_age": "2",
        "name": "Evangelischer Kindergarten Lützelsachsen",
        "operator": "Evangelische Kirchengemeinde Lützelsachsen",
        "phone": "+49 6201 52966",
        "website": "https://www.ekilue.de/html/content/kindergarten348.html",
        "@geometry": "center"
      },
      "geometry": {
        "type": "Point",
        "coordinates": [
          8.6679741,
          49.5262623
        ]
      },
      "id": "way/425827167"
    },
    {
      "type": "Feature",
      "properties": {
        "@id": "way/436139347",
        "access": "yes",
        "leisure": "playground",
        "playground:slide": "yes",
        "@geometry": "center"
      },
      "geometry": {
        "type": "Point",
        "coordinates": [
          8.6517998,
          49.527049
        ]
      },
      "id": "way/436139347"
    },
    {
      "type": "Feature",
      "properties": {
        "@id": "way/457650473",
        "addr:city": "Weinheim",
        "addr:housenumber": "5",
        "addr:postcode": "69469",
        "addr:street": "Babostraße",
        "dog": "no",
        "fee": "no",
        "leisure": "park",
        "name": "Schau- und Sichtungsgarten Hermannshof",
        "opening_hours": "Mo-Fr 10:00-16:00",
        "operator": "Schau- und Sichtungsgarten Hermannshof e.V.",
        "phone": "+49 6201 13652",
        "short_name": "Hermannshof",
        "tourism": "attraction",
        "website": "https://sichtungsgarten-hermannshof.de/",
        "wheelchair": "yes",
        "wikidata": "Q1644473",
        "@geometry": "center"
      },
      "geometry": {
        "type": "Point",
        "coordinates": [
          8.6696957,
          49.5475853
        ]
      },
      "id": "way/457650473"
    },
    {
      "type": "Feature",
      "properties": {
        "@id": "node/469370708",
        "name": "Aroma Supermarkt",
        "note": "2017-04: Gebäude ist leerstehend",
        "removed:name": "Netto",
        "removed:wheelchair": "yes",
        "shop": "supermarket"
      },
      "geometry": {
        "type": "Point",
        "coordinates": [
          8.6329436,
          49.548081
        ]
      },
      "id": "node/469370708"
    },
    {
      "type": "Feature",
      "properties": {
        "@id": "node/484315113",
        "bench": "no",
        "bin": "no",
        "bus": "yes",
        "highway": "bus_stop",
        "lit": "yes",
        "name": "Weinheim Dresdener Straße",
        "network": "VRN",
        "public_transport": "platform",
        "shelter": "no",
        "tactile_paving": "no"
      },
      "geometry": {
        "type": "Point",
        "coordinates": [
          8.6494758,
          49.5309812
        ]
      },
      "id": "node/484315113"
    },
    {
      "type": "Feature",
      "properties": {
        "@id": "node/484315115",
        "bench": "yes",
        "bin": "yes",
        "bus": "yes",
        "highway": "bus_stop",
        "lit": "no",
        "name": "Waidsee/Miramar",
        "network": "Verkehrsverbund Rhein-Neckar",
        "network:guid": "DE-BW-VRN",
        "network:short": "VRN",
        "network:wikidata": "Q1553051",
        "network:wikipedia": "de:Verkehrsverbund Rhein-Neckar",
        "old_name": "Waidsee",
        "public_transport": "platform",
        "shelter": "yes",
        "tactile_paving": "no"
      },
      "geometry": {
        "type": "Point",
        "coordinates": [
          8.6461011,
          49.5343668
        ]
      },
      "id": "node/484315115"
    },
    {
      "type": "Feature",
      "properties": {
        "@id": "node/484315119",
        "bench": "no",
        "bin": "no",
        "bus": "yes",
        "highway": "bus_stop",
        "lit": "yes",
        "name": "Waidsee/Miramar",
        "network": "Verkehrsverbund Rhein-Neckar",
        "network:guid": "DE-BW-VRN",
        "network:short": "VRN",
        "network:wikidata": "Q1553051",
        "network:wikipedia": "de:Verkehrsverbund Rhein-Neckar",
        "old_name": "Weinheim Waidsee",
        "public_transport": "platform",
        "shelter": "yes",
        "tactile_paving": "no"
      },
      "geometry": {
        "type": "Point",
        "coordinates": [
          8.6461916,
          49.5340711
        ]
      },
      "id": "node/484315119"
    },
    {
      "type": "Feature",
      "properties": {
        "@id": "way/493013118",
        "addr:housenumber": "4",
        "addr:street": "Mirabellenstraße",
        "amenity": "kindergarten",
        "building": "kindergarten",
        "building:colour": "brown;white",
        "building:levels": "2",
        "name": "Kindertagesstätte Bärenbande",
        "roof:colour": "green",
        "roof:material": "grass",
        "roof:shape": "flat",
        "source:geometry": "DigitalGlobe Standard Imagery",
        "@geometry": "center"
      },
      "geometry": {
        "type": "Point",
        "coordinates": [
          8.6514752,
          49.5288742
        ]
      },
      "id": "way/493013118"
    },
    {
      "type": "Feature",
      "properties": {
        "@id": "node/495988285",
        "bench": "yes",
        "bus": "yes",
        "highway": "bus_stop",
        "name": "Weinheim Turnerbad",
        "network": "VRN",
        "public_transport": "platform",
        "shelter": "yes",
        "tactile_paving": "no"
      },
      "geometry": {
        "type": "Point",
        "coordinates": [
          8.6923152,
          49.5417283
        ]
      },
      "id": "node/495988285"
    },
    {
      "type": "Feature",
      "properties": {
        "@id": "node/495988288",
        "bench": "no",
        "bus": "yes",
        "highway": "bus_stop",
        "name": "Weinheim Turnerbad",
        "network": "VRN",
        "public_transport": "platform",
        "shelter": "no",
        "tactile_paving": "no"
      },
      "geometry": {
        "type": "Point",
        "coordinates": [
          8.6919936,
          49.5415526
        ]
      },
      "id": "node/495988288"
    },
    {
      "type": "Feature",
      "properties": {
        "@id": "way/501022978",
        "leisure": "park",
        "@geometry": "center"
      },
      "geometry": {
        "type": "Point",
        "coordinates": [
          8.6700183,
          49.5510493
        ]
      },
      "id": "way/501022978"
    },
    {
      "type": "Feature",
      "properties": {
        "@id": "node/519916037",
        "bus": "yes",
        "highway": "bus_stop",
        "name": "Lützelsachsen Dornbachweg",
        "network": "VRN",
        "public_transport": "platform",
        "shelter": "yes",
        "tactile_paving": "no"
      },
      "geometry": {
        "type": "Point",
        "coordinates": [
          8.6654964,
          49.5326883
        ]
      },
      "id": "node/519916037"
    },
    {
      "type": "Feature",
      "properties": {
        "@id": "way/527807225",
        "access": "yes",
        "leisure": "playground",
        "@geometry": "center"
      },
      "geometry": {
        "type": "Point",
        "coordinates": [
          8.6573199,
          49.5789263
        ]
      },
      "id": "way/527807225"
    },
    {
      "type": "Feature",
      "properties": {
        "@id": "way/544764982",
        "access": "yes",
        "landuse": "recreation_ground",
        "surface": "dirt;sand",
        "@geometry": "center"
      },
      "geometry": {
        "type": "Point",
        "coordinates": [
          8.6662349,
          49.5650926
        ]
      },
      "id": "way/544764982"
    },
    {
      "type": "Feature",
      "properties": {
        "@id": "node/595722191",
        "name": "Aroma",
        "shop": "supermarket",
        "wheelchair": "yes"
      },
      "geometry": {
        "type": "Point",
        "coordinates": [
          8.6718733,
          49.5554631
        ]
      },
      "id": "node/595722191"
    },
    {
      "type": "Feature",
      "properties": {
        "@id": "node/621785860",
        "bus": "yes",
        "highway": "bus_stop",
        "name": "Weinheim GRN Pflegezentrum",
        "network": "VRN",
        "public_transport": "platform"
      },
      "geometry": {
        "type": "Point",
        "coordinates": [
          8.6615759,
          49.5543671
        ]
      },
      "id": "node/621785860"
    },
    {
      "type": "Feature",
      "properties": {
        "@id": "way/625109927",
        "leisure": "playground",
        "@geometry": "center"
      },
      "geometry": {
        "type": "Point",
        "coordinates": [
          8.6501824,
          49.540032
        ]
      },
      "id": "way/625109927"
    },
    {
      "type": "Feature",
      "properties": {
        "@id": "way/625109928",
        "leisure": "playground",
        "@geometry": "center"
      },
      "geometry": {
        "type": "Point",
        "coordinates": [
          8.6507336,
          49.5398889
        ]
      },
      "id": "way/625109928"
    },
    {
      "type": "Feature",
      "properties": {
        "@id": "node/633020614",
        "bench": "yes",
        "bus": "yes",
        "highway": "bus_stop",
        "lit": "yes",
        "name": "Weinheim Miramar",
        "network": "Verkehrsverbund Rhein-Neckar",
        "network:guid": "DE-BW-VRN",
        "network:short": "VRN",
        "network:wikidata": "Q1553051",
        "network:wikipedia": "de:Verkehrsverbund Rhein-Neckar",
        "public_transport": "platform",
        "shelter": "yes",
        "tactile_paving": "no"
      },
      "geometry": {
        "type": "Point",
        "coordinates": [
          8.6446872,
          49.533305
        ]
      },
      "id": "node/633020614"
    },
    {
      "type": "Feature",
      "properties": {
        "@id": "node/633020736",
        "bench": "yes",
        "bin": "yes",
        "bus": "yes",
        "highway": "bus_stop",
        "name": "Ofling",
        "network": "Verkehrsverbund Rhein-Neckar",
        "network:guid": "DE-BW-VRN",
        "network:short": "VRN",
        "network:wikidata": "Q1553051",
        "network:wikipedia": "de:Verkehrsverbund Rhein-Neckar",
        "public_transport": "platform",
        "shelter": "yes"
      },
      "geometry": {
        "type": "Point",
        "coordinates": [
          8.6418496,
          49.5297499
        ]
      },
      "id": "node/633020736"
    },
    {
      "type": "Feature",
      "properties": {
        "@id": "node/668962372",
        "bus": "yes",
        "highway": "bus_stop",
        "name": "Rippenweier Abzweig",
        "network": "VRN",
        "public_transport": "platform"
      },
      "geometry": {
        "type": "Point",
        "coordinates": [
          8.7092945,
          49.5110491
        ]
      },
      "id": "node/668962372"
    },
    {
      "type": "Feature",
      "properties": {
        "@id": "node/692974090",
        "bus": "yes",
        "highway": "bus_stop",
        "network": "VRN",
        "shelter": "no"
      },
      "geometry": {
        "type": "Point",
        "coordinates": [
          8.655111,
          49.521482
        ]
      },
      "id": "node/692974090"
    },
    {
      "type": "Feature",
      "properties": {
        "@id": "node/767118283",
        "landuse": "recreation_ground",
        "name": "Haganderpark"
      },
      "geometry": {
        "type": "Point",
        "coordinates": [
          8.6682156,
          49.5521973
        ]
      },
      "id": "node/767118283"
    },
    {
      "type": "Feature",
      "properties": {
        "@id": "way/786484685",
        "leisure": "garden",
        "@geometry": "center"
      },
      "geometry": {
        "type": "Point",
        "coordinates": [
          8.636638,
          49.5804847
        ]
      },
      "id": "way/786484685"
    },
    {
      "type": "Feature",
      "properties": {
        "@id": "way/786606776",
        "leisure": "park",
        "@geometry": "center"
      },
      "geometry": {
        "type": "Point",
        "coordinates": [
          8.649611,
          49.5815383
        ]
      },
      "id": "way/786606776"
    },
    {
      "type": "Feature",
      "properties": {
        "@id": "way/786606781",
        "leisure": "park",
        "@geometry": "center"
      },
      "geometry": {
        "type": "Point",
        "coordinates": [
          8.6497687,
          49.5810114
        ]
      },
      "id": "way/786606781"
    },
    {
      "type": "Feature",
      "properties": {
        "@id": "node/825064124",
        "bench": "yes",
        "bus": "yes",
        "highway": "bus_stop",
        "name": "Lützelsachsen Schule",
        "network": "VRN",
        "public_transport": "platform",
        "shelter": "yes",
        "tactile_paving": "no"
      },
      "geometry": {
        "type": "Point",
        "coordinates": [
          8.6666046,
          49.5286458
        ]
      },
      "id": "node/825064124"
    },
    {
      "type": "Feature",
      "properties": {
        "@id": "node/825465442",
        "bench": "yes",
        "bin": "yes",
        "bus": "yes",
        "highway": "bus_stop",
        "lit": "yes",
        "name": "Weinheim Dürreplatz",
        "network": "Verkehrsverbund Rhein-Neckar",
        "network:guid": "DE-BW-VRN",
        "network:short": "VRN",
        "network:wikidata": "Q1553051",
        "network:wikipedia": "de:Verkehrsverbund Rhein-Neckar",
        "public_transport": "platform",
        "shelter": "yes",
        "tactile_paving": "yes"
      },
      "geometry": {
        "type": "Point",
        "coordinates": [
          8.6724015,
          49.5502937
        ]
      },
      "id": "node/825465442"
    },
    {
      "type": "Feature",
      "properties": {
        "@id": "node/828035316",
        "leisure": "playground"
      },
      "geometry": {
        "type": "Point",
        "coordinates": [
          8.6447212,
          49.5825991
        ]
      },
      "id": "node/828035316"
    },
    {
      "type": "Feature",
      "properties": {
        "@id": "node/856347822",
        "bus": "yes",
        "highway": "bus_stop",
        "name": "Hohensachsen Talstraße",
        "network": "VRN",
        "public_transport": "platform"
      },
      "geometry": {
        "type": "Point",
        "coordinates": [
          8.6746144,
          49.5198603
        ]
      },
      "id": "node/856347822"
    },
    {
      "type": "Feature",
      "properties": {
        "@id": "node/856480995",
        "bench": "yes",
        "bin": "yes",
        "bus": "yes",
        "highway": "bus_stop",
        "lit": "yes",
        "name": "Hohensachsen Anetplatz",
        "network": "VRN",
        "public_transport": "platform",
        "shelter": "yes",
        "tactile_paving": "no"
      },
      "geometry": {
        "type": "Point",
        "coordinates": [
          8.6682467,
          49.5196162
        ]
      },
      "id": "node/856480995"
    },
    {
      "type": "Feature",
      "properties": {
        "@id": "node/856483499",
        "bench": "no",
        "bin": "no",
        "bus": "yes",
        "highway": "bus_stop",
        "lit": "yes",
        "name": "Hohensachsen Kaiserstraße",
        "network": "VRN",
        "public_transport": "platform",
        "shelter": "no",
        "tactile_paving": "no"
      },
      "geometry": {
        "type": "Point",
        "coordinates": [
          8.6685397,
          49.520749
        ]
      },
      "id": "node/856483499"
    },
    {
      "type": "Feature",
      "properties": {
        "@id": "node/856483502",
        "bench": "no",
        "bin": "no",
        "bus": "yes",
        "highway": "bus_stop",
        "lit": "no",
        "name": "Hohensachsen Kaiserstraße",
        "network": "VRN",
        "public_transport": "platform",
        "shelter": "no",
        "tactile_paving": "no"
      },
      "geometry": {
        "type": "Point",
        "coordinates": [
          8.6686919,
          49.5206786
        ]
      },
      "id": "node/856483502"
    },
    {
      "type": "Feature",
      "properties": {
        "@id": "node/873834758",
        "bench": "no",
        "bin": "no",
        "bus": "yes",
        "highway": "bus_stop",
        "lit": "no",
        "name": "Hohensachsen Sepp-Herberger-Straße",
        "network": "VRN",
        "public_transport": "platform",
        "shelter": "no",
        "tactile_paving": "no"
      },
      "geometry": {
        "type": "Point",
        "coordinates": [
          8.6678852,
          49.5228968
        ]
      },
      "id": "node/873834758"
    },
    {
      "type": "Feature",
      "properties": {
        "@id": "node/873835402",
        "bench": "no",
        "bin": "no",
        "bus": "yes",
        "highway": "bus_stop",
        "lit": "no",
        "name": "Hohensachsen Sepp-Herberger-Straße",
        "network": "VRN",
        "public_transport": "platform",
        "shelter": "no",
        "tactile_paving": "no"
      },
      "geometry": {
        "type": "Point",
        "coordinates": [
          8.6679807,
          49.5227941
        ]
      },
      "id": "node/873835402"
    },
    {
      "type": "Feature",
      "properties": {
        "@id": "way/881866693",
        "bench": "yes",
        "bin": "yes",
        "bus": "yes",
        "description": "Hochbord ohne Spurführung vorhanden",
        "highway": "bus_stop",
        "lit": "yes",
        "name": "Lützelsachsen Bahnhof",
        "network": "VRN",
        "public_transport": "platform",
        "shelter": "yes",
        "tactile_paving": "yes",
        "@geometry": "center"
      },
      "geometry": {
        "type": "Point",
        "coordinates": [
          8.6509661,
          49.528666
        ]
      },
      "id": "way/881866693"
    },
    {
      "type": "Feature",
      "properties": {
        "@id": "way/881866700",
        "bench": "yes",
        "bin": "yes",
        "bus": "yes",
        "description": "Hochbord mit Spurführung vorhanden",
        "highway": "bus_stop",
        "lit": "no",
        "name": "Weinheim Dresdener Straße",
        "network": "VRN",
        "public_transport": "platform",
        "shelter": "yes",
        "tactile_paving": "yes",
        "@geometry": "center"
      },
      "geometry": {
        "type": "Point",
        "coordinates": [
          8.6495412,
          49.5310578
        ]
      },
      "id": "way/881866700"
    },
    {
      "type": "Feature",
      "properties": {
        "@id": "way/926864235",
        "leisure": "garden",
        "@geometry": "center"
      },
      "geometry": {
        "type": "Point",
        "coordinates": [
          8.7268242,
          49.5083228
        ]
      },
      "id": "way/926864235"
    },
    {
      "type": "Feature",
      "properties": {
        "@id": "way/926864238",
        "leisure": "garden",
        "@geometry": "center"
      },
      "geometry": {
        "type": "Point",
        "coordinates": [
          8.7257074,
          49.5089317
        ]
      },
      "id": "way/926864238"
    },
    {
      "type": "Feature",
      "properties": {
        "@id": "way/926864240",
        "leisure": "garden",
        "@geometry": "center"
      },
      "geometry": {
        "type": "Point",
        "coordinates": [
          8.7266348,
          49.5097109
        ]
      },
      "id": "way/926864240"
    },
    {
      "type": "Feature",
      "properties": {
        "@id": "way/926864250",
        "leisure": "garden",
        "@geometry": "center"
      },
      "geometry": {
        "type": "Point",
        "coordinates": [
          8.7258091,
          49.5082313
        ]
      },
      "id": "way/926864250"
    },
    {
      "type": "Feature",
      "properties": {
        "@id": "way/926864303",
        "leisure": "garden",
        "@geometry": "center"
      },
      "geometry": {
        "type": "Point",
        "coordinates": [
          8.7314505,
          49.5104309
        ]
      },
      "id": "way/926864303"
    },
    {
      "type": "Feature",
      "properties": {
        "@id": "way/927127166",
        "leisure": "garden",
        "@geometry": "center"
      },
      "geometry": {
        "type": "Point",
        "coordinates": [
          8.6914773,
          49.5087462
        ]
      },
      "id": "way/927127166"
    },
    {
      "type": "Feature",
      "properties": {
        "@id": "way/927127170",
        "leisure": "garden",
        "@geometry": "center"
      },
      "geometry": {
        "type": "Point",
        "coordinates": [
          8.6911517,
          49.5094344
        ]
      },
      "id": "way/927127170"
    },
    {
      "type": "Feature",
      "properties": {
        "@id": "way/927127185",
        "leisure": "garden",
        "@geometry": "center"
      },
      "geometry": {
        "type": "Point",
        "coordinates": [
          8.6946628,
          49.5062772
        ]
      },
      "id": "way/927127185"
    },
    {
      "type": "Feature",
      "properties": {
        "@id": "way/927127187",
        "leisure": "garden",
        "@geometry": "center"
      },
      "geometry": {
        "type": "Point",
        "coordinates": [
          8.6949022,
          49.5060486
        ]
      },
      "id": "way/927127187"
    },
    {
      "type": "Feature",
      "properties": {
        "@id": "way/927127200",
        "leisure": "garden",
        "@geometry": "center"
      },
      "geometry": {
        "type": "Point",
        "coordinates": [
          8.7089609,
          49.5042211
        ]
      },
      "id": "way/927127200"
    },
    {
      "type": "Feature",
      "properties": {
        "@id": "way/937047000",
        "leisure": "park",
        "@geometry": "center"
      },
      "geometry": {
        "type": "Point",
        "coordinates": [
          8.6670931,
          49.5545927
        ]
      },
      "id": "way/937047000"
    },
    {
      "type": "Feature",
      "properties": {
        "@id": "way/937062912",
        "leisure": "garden",
        "@geometry": "center"
      },
      "geometry": {
        "type": "Point",
        "coordinates": [
          8.6572801,
          49.5575092
        ]
      },
      "id": "way/937062912"
    },
    {
      "type": "Feature",
      "properties": {
        "@id": "way/937062919",
        "leisure": "park",
        "@geometry": "center"
      },
      "geometry": {
        "type": "Point",
        "coordinates": [
          8.665251,
          49.5559555
        ]
      },
      "id": "way/937062919"
    },
    {
      "type": "Feature",
      "properties": {
        "@id": "way/940075286",
        "leisure": "playground",
        "@geometry": "center"
      },
      "geometry": {
        "type": "Point",
        "coordinates": [
          8.6421887,
          49.5398533
        ]
      },
      "id": "way/940075286"
    },
    {
      "type": "Feature",
      "properties": {
        "@id": "way/983578499",
        "leisure": "garden",
        "@geometry": "center"
      },
      "geometry": {
        "type": "Point",
        "coordinates": [
          8.6579561,
          49.5387354
        ]
      },
      "id": "way/983578499"
    },
    {
      "type": "Feature",
      "properties": {
        "@id": "way/1027489736",
        "leisure": "playground",
        "@geometry": "center"
      },
      "geometry": {
        "type": "Point",
        "coordinates": [
          8.641175,
          49.5335424
        ]
      },
      "id": "way/1027489736"
    },
    {
      "type": "Feature",
      "properties": {
        "@id": "way/1028635543",
        "leisure": "garden",
        "@geometry": "center"
      },
      "geometry": {
        "type": "Point",
        "coordinates": [
          8.6566021,
          49.5330108
        ]
      },
      "id": "way/1028635543"
    },
    {
      "type": "Feature",
      "properties": {
        "@id": "node/1062235844",
        "bench": "no",
        "bin": "no",
        "bus": "yes",
        "highway": "bus_stop",
        "lit": "no",
        "name": "Hohensachsen Rathaus",
        "network": "VRN",
        "public_transport": "platform",
        "shelter": "no",
        "source:position": "survey;Maps4BW",
        "tactile_paving": "no"
      },
      "geometry": {
        "type": "Point",
        "coordinates": [
          8.6701987,
          49.5186928
        ]
      },
      "id": "node/1062235844"
    },
    {
      "type": "Feature",
      "properties": {
        "@id": "node/1062237893",
        "bench": "no",
        "bin": "no",
        "bus": "yes",
        "highway": "bus_stop",
        "lit": "no",
        "name": "Hohensachsen Rathaus",
        "network": "VRN",
        "public_transport": "platform",
        "shelter": "no",
        "tactile_paving": "no"
      },
      "geometry": {
        "type": "Point",
        "coordinates": [
          8.6697553,
          49.5188456
        ]
      },
      "id": "node/1062237893"
    },
    {
      "type": "Feature",
      "properties": {
        "@id": "way/1068459020",
        "access": "yes",
        "leisure": "playground",
        "@geometry": "center"
      },
      "geometry": {
        "type": "Point",
        "coordinates": [
          8.6756404,
          49.5551218
        ]
      },
      "id": "way/1068459020"
    },
    {
      "type": "Feature",
      "properties": {
        "@id": "way/1136451822",
        "access": "yes",
        "leisure": "playground",
        "surface": "sand",
        "@geometry": "center"
      },
      "geometry": {
        "type": "Point",
        "coordinates": [
          8.6543126,
          49.5554759
        ]
      },
      "id": "way/1136451822"
    },
    {
      "type": "Feature",
      "properties": {
        "@id": "way/1136451838",
        "leisure": "playground",
        "@geometry": "center"
      },
      "geometry": {
        "type": "Point",
        "coordinates": [
          8.6557986,
          49.5504016
        ]
      },
      "id": "way/1136451838"
    },
    {
      "type": "Feature",
      "properties": {
        "@id": "way/1136468214",
        "addr:city": "Weinheim",
        "addr:postcode": "69469",
        "addr:street": "Friedrich-Ebert-Ring",
        "leisure": "park",
        "@geometry": "center"
      },
      "geometry": {
        "type": "Point",
        "coordinates": [
          8.6320957,
          49.5409886
        ]
      },
      "id": "way/1136468214"
    },
    {
      "type": "Feature",
      "properties": {
        "@id": "way/1136468215",
        "addr:city": "Weinheim",
        "addr:postcode": "69469",
        "addr:street": "Friedrich-Ebert-Ring",
        "leisure": "park",
        "@geometry": "center"
      },
      "geometry": {
        "type": "Point",
        "coordinates": [
          8.6320909,
          49.5414208
        ]
      },
      "id": "way/1136468215"
    },
    {
      "type": "Feature",
      "properties": {
        "@id": "way/1136468216",
        "addr:city": "Weinheim",
        "addr:postcode": "69469",
        "addr:street": "Friedrich-Ebert-Ring",
        "leisure": "park",
        "@geometry": "center"
      },
      "geometry": {
        "type": "Point",
        "coordinates": [
          8.6321152,
          49.5418432
        ]
      },
      "id": "way/1136468216"
    },
    {
      "type": "Feature",
      "properties": {
        "@id": "way/1136468217",
        "addr:city": "Weinheim",
        "addr:postcode": "69469",
        "addr:street": "Friedrich-Ebert-Ring",
        "leisure": "park",
        "@geometry": "center"
      },
      "geometry": {
        "type": "Point",
        "coordinates": [
          8.6327573,
          49.5406635
        ]
      },
      "id": "way/1136468217"
    },
    {
      "type": "Feature",
      "properties": {
        "@id": "way/1136468218",
        "addr:city": "Weinheim",
        "addr:postcode": "69469",
        "addr:street": "Friedrich-Ebert-Ring",
        "leisure": "park",
        "@geometry": "center"
      },
      "geometry": {
        "type": "Point",
        "coordinates": [
          8.6334012,
          49.5405631
        ]
      },
      "id": "way/1136468218"
    },
    {
      "type": "Feature",
      "properties": {
        "@id": "way/1136468219",
        "addr:city": "Weinheim",
        "addr:postcode": "69469",
        "addr:street": "Friedrich-Ebert-Ring",
        "leisure": "park",
        "@geometry": "center"
      },
      "geometry": {
        "type": "Point",
        "coordinates": [
          8.6340302,
          49.5404685
        ]
      },
      "id": "way/1136468219"
    },
    {
      "type": "Feature",
      "properties": {
        "@id": "way/1136468220",
        "addr:city": "Weinheim",
        "addr:postcode": "69469",
        "addr:street": "Friedrich-Ebert-Ring",
        "leisure": "park",
        "@geometry": "center"
      },
      "geometry": {
        "type": "Point",
        "coordinates": [
          8.6346478,
          49.5403761
        ]
      },
      "id": "way/1136468220"
    },
    {
      "type": "Feature",
      "properties": {
        "@id": "way/1136468221",
        "addr:city": "Weinheim",
        "addr:postcode": "69469",
        "addr:street": "Friedrich-Ebert-Ring",
        "leisure": "park",
        "@geometry": "center"
      },
      "geometry": {
        "type": "Point",
        "coordinates": [
          8.6352062,
          49.5403716
        ]
      },
      "id": "way/1136468221"
    },
    {
      "type": "Feature",
      "properties": {
        "@id": "way/1136468222",
        "addr:city": "Weinheim",
        "addr:postcode": "69469",
        "addr:street": "Friedrich-Ebert-Ring",
        "leisure": "park",
        "@geometry": "center"
      },
      "geometry": {
        "type": "Point",
        "coordinates": [
          8.6348225,
          49.541751
        ]
      },
      "id": "way/1136468222"
    },
    {
      "type": "Feature",
      "properties": {
        "@id": "way/1136468224",
        "addr:city": "Weinheim",
        "addr:postcode": "69469",
        "addr:street": "Friedrich-Ebert-Ring",
        "leisure": "park",
        "@geometry": "center"
      },